Название,Категория,Кухня,Ценовой диапозон,Адрес,Режим работы,Телефон,Сайт,Фото,ID,lat,lon
CHILLim Cyber Lounge,Компьютерные клубы,"Итальянская кухня, Европейская кухня, Американская кухня, ",Средний чек 350 ₽,"Московская улица, 54","['00:00-24:00', '00:00-24:00', '00:00-24:00', '00:00-24:00', '00:00-24:00', '00:00-24:00', '00:00-24:00']",+7 (8332) 44-90-05,,https://i3.photo.2gis.com/main/branch/58/70000001047676860/common,70000001047676860,58.603161,49.658216
"Four, ресторан",Рестораны,"Итальянская кухня, Русская кухня, Европейская кухня, Авторская кухня, ",Средний чек 2000 ₽,"Октябрьский проспект, 145 к1","['06:00-23:00', '06:00-23:00', '06:00-23:00', '06:00-23:00', '06:00-23:00', '06:00-23:00', '06:00-23:00']",+7 (8332) 20-44-10,https://www.four-kirov.ru/,https://i0.photo.2gis.com/main/branch/58/70000001007379384/facilities,70000001007379384,58.590339,49.657452
"Царское Село, ресторация русской кухни",Рестораны,"Русская кухня, Европейская кухня, ",Средний чек 1500 ₽,"улица Герцена, 78","['08:30-23:00', '08:30-23:00', '08:30-23:00', '08:30-23:00', '08:30-24:00', '12:00-24:00', '12:00-23:00']",+7 (8332) 40-53-43,http://m-kyhnia.ru/tsarskoe-selo,https://i0.photo.2gis.com/main/branch/58/8163302605593109/common,8163302605593109,58.599747,49.656206
"Nobel, гастробар",Рестораны,"Европейская кухня, ",Средний чек 900 ₽,"улица Воровского, 43","['08:00-05:00', '08:00-05:00', '08:00-05:00', '08:00-05:00', '00:00-24:00', '00:00-24:00', '08:00-05:00']",+7 (8332) 22-01-07,https://www.nobel.bar/,https://i8.photo.2gis.com/main/branch/58/70000001036037552/common,70000001036037552,58.594455,49.667082
"Offshore Drinkeria & Bistro, бар",Бары,"Паназиатская кухня, ",,"Спасская улица, 6","['08:00-01:00', '08:00-01:00', '08:00-01:00', '08:00-01:00', '08:00-03:00', '08:00-03:00', '08:00-01:00']",+7 (922) 995-01-99,,https://i5.photo.2gis.com/main/branch/58/70000001058651689/common,70000001058651689,58.602064,49.681403
"Сулугуни, кафе грузинской кухни",Кафе,"Грузинская кухня, Кавказская кухня, ",Средний чек 800 ₽,"улица Ленина, 71а","['10:55-23:00', '10:55-23:00', '10:55-23:00', '10:55-23:00', '10:55-24:00', '10:55-24:00', '10:55-23:00']",+7 (8332) 46-45-30,https://sulugunikirov.ru/,https://i3.photo.2gis.com/main/branch/58/70000001027621967/common,70000001027621967,58.603307,49.680738
Вкусно — и точка,Быстрое питание,,Средний чек 250 ₽,"Октябрьский проспект, 147а","['07:00-24:00', '07:00-24:00', '07:00-24:00', '07:00-24:00', '07:00-24:00', '07:00-24:00', '07:00-24:00']",+7 (8332) 20-37-94,https://vkusnoitochka.ru/menu?utm_campaign=Yandex_Maps_landing&utm_content=Contacts&utm_medium=banner&utm_source=Yandex.Maps&utm_term=-Geo-Campany_Card-Cities,https://i4.photo.2gis.com/main/branch/58/8163303606103681/facilities,8163303606103681,58.588547,49.657439
"Сулугуни, кафе грузинской кухни",Кафе,"Грузинская кухня, Кавказская кухня, ",Средний чек 800 ₽,"улица Екатерины Кочкиной, 3Б","['10:55-23:00', '10:55-23:00', '10:55-23:00', '10:55-23:00', '10:55-24:00', '10:55-24:00', '10:55-23:00']",+7 (8332) 44-00-70,http://sulugunikirov.ru/,https://i6.photo.2gis.com/main/branch/58/70000001046222472/common,70000001046222472,58.595916,49.602158
Академия Хинкали на Казанской,Кафе,"Грузинская кухня, ",Средний чек 550 ₽,"Казанская улица, 77Б","['09:00-23:00', '09:00-23:00', '09:00-23:00', '09:00-23:00', '09:00-24:00', '09:00-24:00', '09:00-23:00']",+7 (8332) 45-45-88,https://akk43.ru/apps/,https://i3.photo.2gis.com/main/branch/58/70000001037593401/common,70000001037593401,58.603008,49.683893
"Ойкумена, ресторан",Рестораны,,,"улица Герцена, 15","['07:30-23:00', '07:30-23:00', '07:30-23:00', '07:30-23:00', '07:30-24:00', '09:00-24:00', '09:00-23:00']",+7 (922) 663-70-08,,https://i2.photo.2gis.com/main/branch/58/70000001061537782/common,70000001061537782,58.600422,49.67611
"Хлеб & Пицца для друзей, ресторан",Пиццерии,"Итальянская кухня, Русская кухня, Европейская кухня, ",Средний чек 550 ₽,"Красноармейская улица, 5","['09:00-22:00', '09:00-22:00', '09:00-22:00', '09:00-22:00', '09:00-22:00', '09:00-22:00', '09:00-22:00']",+7 (8332) 20-62-14,https://хлебипицца.рф/,https://i1.photo.2gis.com/main/branch/58/70000001060047733/common,70000001060047733,58.591956,49.679536
"Bomarshe, арт-кондитерская",Кофейни,,,"Преображенская улица, 29","['08:00-21:00', '08:00-21:00', '08:00-21:00', '08:00-21:00', '08:00-21:00', '09:00-21:00', '10:00-21:00']",+7 (8332) 41-25-25,,https://i1.photo.2gis.com/main/branch/58/70000001057637527/common,70000001057637527,58.60553,49.675189
"Сыто-Пряно, винный бар",Бары,"Европейская кухня, ",Средний чек 600 ₽,"Спасская улица, 8","['08:30-23:00', '08:30-23:00', '08:30-23:00', '08:30-23:00', '08:30-24:00', '10:00-24:00', '10:00-23:00']",+7 (8332) 22-12-23,https://fulldrunk.ru/,https://i9.photo.2gis.com/main/branch/58/70000001039323576/common,70000001039323576,58.602055,49.680427
Академия кавказской кухни,Рестораны,"Кавказская кухня, ",Средний чек 1200 ₽,"улица Янтарная слобода, 14в","['10:00-23:00', '10:00-23:00', '10:00-23:00', '10:00-23:00', '10:00-24:00', '10:00-24:00', '10:00-23:00']",+7 (8332) 45-44-45,https://akk43.ru/,https://i2.photo.2gis.com/main/branch/58/70000001028975354/common,70000001028975354,58.611646,49.789372
"Шоколадница, кофейня",Кофейни,,Средний чек 400 ₽,"Спасская улица, 18а","['09:00-21:00', '09:00-21:00', '09:00-21:00', '09:00-21:00', '09:00-21:00', '09:00-21:00', '09:00-21:00']",+7 (8332) 25-35-55,https://www.shoko.ru/,https://i0.photo.2gis.com/main/branch/58/70000001026030804/common,70000001026030804,58.60193,49.67434
"Кухня, семейное кафе",Кафе,"Итальянская кухня, Кавказская кухня, Русская кухня, ",Средний чек 500 ₽,"улица Молодой Гвардии, 96","['11:00-22:00', '11:00-22:00', '11:00-22:00', '11:00-22:00', '11:00-23:00', '11:00-23:00', '11:00-22:00']",+7 (8332) 22-55-44,,https://i1.photo.2gis.com/main/branch/58/70000001007429479/common,70000001007429479,58.597382,49.646583
"Альфа, ресторан",Рестораны,"Итальянская кухня, Японская кухня, Европейская кухня, ",Средний чек 400 ₽,"Московская улица, 129а","['07:00-23:00', '07:00-23:00', '07:00-23:00', '07:00-23:00', '07:00-23:00', '07:00-23:00', '07:00-23:00']",+7 (8332) 25-20-20,http://alphakirov.ru/,https://i7.photo.2gis.com/main/branch/58/70000001017333166/common,70000001017333166,58.603177,49.622848
"Яйцо, кафе",Кафе,,Средний чек 600 ₽,"улица Воровского, 10","['08:00-20:00', '08:00-20:00', '08:00-20:00', '08:00-20:00', '08:00-20:00', '08:00-20:00', '08:00-20:00']",+7 (8332) 75-43-24,,https://i7.photo.2gis.com/main/branch/58/70000001066080631/common,70000001066080631,58.593903,49.679244
"Terrace, ресторан",Банкетные залы,"Французская кухня, ",Средний чек 1700 ₽,"Профсоюзная улица, 23","['08:00-21:00', '08:00-21:00', '08:00-21:00', '08:00-23:00', '08:00-23:00', '08:00-23:00', '08:00-23:00']",8 (800) 301-08-24,https://bliss-terrace.ru/,https://i2.photo.2gis.com/main/branch/58/70000001024246906/common,70000001024246906,58.615476,49.677387
"Лампа Грина, книжный клуб",Кафе,,Средний чек 500 ₽,"Московская улица, 3","['07:00-23:00', '07:00-23:00', '07:00-23:00', '07:00-23:00', '07:00-23:00', '07:00-23:00', '07:00-23:00']",+7 (912) 737-75-65,,https://i5.photo.2gis.com/main/branch/58/70000001065498561/common,70000001065498561,58.604035,49.683965
"Здесь Был Пьер, гастробар",Кафе,"Японская кухня, Русская кухня, Европейская кухня, ",Средний чек 700 ₽,"улица Воровского, 78","['12:00-23:00', '12:00-23:00', '12:00-23:00', '12:00-23:00', '12:00-23:00', '12:00-23:00', '12:00-23:00']",+7 (8332) 49-03-09,https://taplink.cc/selipoeli,https://i5.photo.2gis.com/main/branch/58/70000001041094224/common,70000001041094224,58.592974,49.632196
"Сели-Поели, гриль-бар",Кафе,"Русская кухня, Европейская кухня, ",Средний чек 200 ₽,"улица Карла Маркса, 139","['10:00-23:00', '10:00-23:00', '10:00-23:00', '10:00-23:00', '10:00-23:00', '10:00-23:00', '10:00-23:00']",+7 (8332) 49-11-49,http://selipoeli.ru/,https://i5.photo.2gis.com/main/branch/58/70000001020340896/common,70000001020340896,58.58766,49.669055
"Santa Mozzarella!, кафе",Кафе,"Итальянская кухня, ",Средний чек 800 ₽,"улица Воровского, 10","['11:00-23:00', '11:00-23:00', '11:00-23:00', '11:00-23:00', '11:00-23:00', '11:00-23:00', '11:00-23:00']",+7 (922) 660-73-22,http://pizzasanta.ru/,https://i7.photo.2gis.com/main/branch/58/70000001055612445/common,70000001055612445,58.593903,49.679244
"Книжный клуб 12, кофейня",Кофейни,,Средний чек 380 ₽,"Преображенская улица, 15","['08:00-23:00', '08:00-23:00', '08:00-23:00', '08:00-23:00', '08:00-23:00', '08:00-23:00', '08:00-23:00']",+7 (8332) 22-12-12,,https://i1.photo.2gis.com/main/branch/58/8163302605626673/common,8163302605626673,58.605576,49.679137
"Brusnika, кафе",Кафе,"Греческая кухня, ",Средний чек 650 ₽,"улица Ленина, 82/1","['08:30-22:00', '08:30-22:00', '08:30-22:00', '08:30-22:00', '08:30-22:00', '10:00-22:00', '10:00-22:00']",+7 (901) 479-22-52,,https://i2.photo.2gis.com/main/branch/58/70000001051992104/common,70000001051992104,58.602278,49.681642
"Мох, кафе-бар",Кафе,"Веганская кухня, Авторская кухня, ",Средний чек 600 ₽,"улица Карла Маркса, 18а","['09:00-21:00', '09:00-21:00', '09:00-21:00', '09:00-21:00', '09:00-24:00', '09:00-24:00', '09:00-21:00']",+7 (8332) 77-73-77,,https://i0.photo.2gis.com/main/branch/58/70000001062535068/common,70000001062535068,58.614146,49.667574
Вкусно — и точка,Быстрое питание,,Средний чек 250 ₽,"улица Воровского, 100а","['07:00-23:00', '07:00-23:00', '07:00-23:00', '07:00-23:00', '07:00-23:00', '07:00-23:00', '07:00-23:00']",+7 (8332) 20-37-90,https://vkusnoitochka.ru/menu?utm_campaign=Yandex_Maps_landing&utm_content=Contacts&utm_medium=banner&utm_source=Yandex.Maps&utm_term=-Geo-Campany_Card-Cities,https://i5.photo.2gis.com/main/branch/58/8163302605671774/facilities,8163302605671774,58.596721,49.607591
"Leonardo, кафе",Кафе,"Итальянская кухня, Русская кухня, Европейская кухня, ",Средний чек 600 ₽,"улица Ленина, 64","['10:00-23:00', '10:00-23:00', '10:00-23:00', '10:00-23:00', '10:00-23:00', '10:00-23:00', '10:00-23:00']",+7 (8332) 21-90-89,,https://i4.photo.2gis.com/main/branch/58/8163302605754119/common,8163302605754119,58.60855,49.68087
"Калейдоскоп, игровое кафе",Кафе,"Японская кухня, Русская кухня, Европейская кухня, ",Средний чек 500 ₽,"Красноармейская улица, 1а","['09:00-21:00', '09:00-21:00', '09:00-21:00', '09:00-21:00', '09:00-21:00', '09:00-21:00', '09:00-21:00']",+7 (8332) 22-70-93,http://43play.ru/,https://i5.photo.2gis.com/main/branch/58/8163303606214472/common,8163303606214472,58.593159,49.683153
"Брокколи, веганское кафе",Кафе,"Домашняя кухня, Веганская кухня, ",Средний чек 300 ₽,"улица Горбачёва, 16","['09:00-21:00', '09:00-21:00', '09:00-21:00', '09:00-21:00', '09:00-21:00', '09:00-21:00', '09:00-21:00']",+7 (8332) 21-75-50,,https://i0.photo.2gis.com/main/branch/58/70000001034743475/common,70000001034743475,58.600162,49.684179
"Ланч Бранч, кафе-столовая",Столовые,"Паназиатская кухня, Русская кухня, ",Средний чек 200 ₽,"улица Молодой Гвардии, 82","['08:00-21:00', '08:00-21:00', '08:00-21:00', '08:00-21:00', '08:00-21:00', '08:00-21:00', '08:00-21:00']",+7 (922) 982-00-20,,https://i2.photo.2gis.com/main/branch/58/70000001038179195/common,70000001038179195,58.597963,49.655585
"A.dress счастья, кафе",Кафе,"Итальянская кухня, Японская кухня, Европейская кухня, ",Средний чек 1200 ₽,"улица Герцена, 41","['08:00-23:00', '08:00-23:00', '08:00-23:00', '08:00-23:00', '08:00-02:00', '08:00-02:00', '08:00-23:00']",+7 (912) 734-29-00,http://a-dress-happy.ru/,https://i7.photo.2gis.com/main/branch/58/70000001051382597/common,70000001051382597,58.600287,49.667534
"Coffee Like, кофе-бар",Кофейни,,Средний чек 220 ₽,"Октябрьский проспект, 117","['08:00-21:00', '08:00-21:00', '08:00-21:00', '08:00-21:00', '08:00-21:00', '09:00-21:00', '09:00-21:00']",8 (800) 333-41-30,https://coffee-like.com/,https://i9.photo.2gis.com/main/branch/58/70000001037281517/common,70000001037281517,58.604365,49.656841
"12 стульев, кафе",Кафе,"Русская кухня, Европейская кухня, ",Средний чек 650 ₽,"улица Сурикова, 19","['09:00-22:00', '09:00-22:00', '09:00-22:00', '09:00-22:00', '09:00-24:00', '12:00-24:00', '12:00-22:00']",+7 (8332) 63-19-33,,https://i1.photo.2gis.com/main/branch/58/8163302605586452/common,8163302605586452,58.588073,49.635585
"Провино, бар",Бары,,,"улица Ленина, 86","['10:00-23:00', '10:00-23:00', '10:00-23:00', '10:00-23:00', '10:00-24:00', '10:00-24:00', '10:00-23:00']",+7 (8332) 22-26-02,http://provinoshop.ru/,https://i7.photo.2gis.com/main/branch/58/70000001055135351/common,70000001055135351,58.601364,49.681453
"Барон Чайхаузен, кофейня-магазин",Кофейни,,Средний чек 350 ₽,"улица Карла Маркса, 62","['08:00-20:00', '08:00-20:00', '08:00-20:00', '08:00-20:00', '08:00-20:00', '09:00-20:00', '09:00-20:00']",+7 (912) 717-03-59,,https://i5.photo.2gis.com/main/branch/58/70000001022038469/common,70000001022038469,58.604505,49.669413
"АвтоПорт, кафе",Кафе,"Кавказская кухня, Русская кухня, ",Средний чек 300 ₽,"трасса Киров-Котельнич, 2а","['07:00-22:00', '07:00-22:00', '07:00-22:00', '07:00-22:00', '07:00-22:00', '07:00-22:00', '07:00-22:00']",+7 (8332) 44-06-06,http://cafe.motor92.ru/,https://i0.photo.2gis.com/main/branch/58/8163302605586893/common,8163302605586893,58.681987,49.641601
"Пузата Хата, кафе-столовая",Столовые,,Средний чек 1200 ₽,"улица Блюхера, 12","['07:30-23:00', '07:30-23:00', '07:30-23:00', '07:30-23:00', '07:30-23:00', '07:30-23:00', '07:30-23:00']",+7 (912) 376-23-25,,https://i6.photo.2gis.com/main/branch/58/70000001046430044/common,70000001046430044,58.584265,49.68363
"Rainero, кафе-пиццерия",Пиццерии,"Итальянская кухня, ",Средний чек 800 ₽,"Московская улица, 24","['10:00-22:00', '10:00-22:00', '10:00-22:00', '10:00-22:00', '10:00-22:00', '10:00-22:00', '10:00-22:00']",+7 (922) 977-57-75,https://pizzeria-rainero.ru/,https://i3.photo.2gis.com/main/branch/58/70000001036010406/common,70000001036010406,58.603591,49.674508
"Метелица, кафе",Кафе,"Русская кухня, Европейская кухня, ",Средний чек 200 ₽,"улица Менделеева, 12","['08:00-18:00', '08:00-18:00', '08:00-18:00', '08:00-18:00', '08:00-18:00', '08:00-17:00', '08:00-17:00']",+7 (8332) 51-45-06,,https://i7.photo.2gis.com/main/branch/58/8163302605590516/common,8163302605590516,58.605914,49.603624
Вкусно — и точка,Быстрое питание,,Средний чек 300 ₽,"Луганская улица, 53/2","['10:00-21:00', '10:00-21:00', '10:00-21:00', '10:00-21:00', '10:00-21:00', '10:00-21:00', '10:00-21:00']",+7 (8332) 20-48-24,https://vkusnoitochka.ru/menu?utm_campaign=Yandex_Maps_landing&utm_content=Contacts&utm_medium=banner&utm_source=Yandex.Maps&utm_term=-Geo-Campany_Card-Cities,https://i0.photo.2gis.com/main/branch/58/70000001056350237/common,70000001056350237,58.616009,49.594048
"Фабрика кухня, кафе",Кафе,"Европейская кухня, ",Средний чек 500 ₽,"улица Ленина, 198 к2","['11:00-23:00', '11:00-23:00', '11:00-23:00', '11:00-23:00', '11:00-23:00', '11:00-23:00', '11:00-23:00']",+7 (8332) 41-11-12,,https://i3.photo.2gis.com/main/branch/58/70000001045015876/common,70000001045015876,58.56466,49.686365
"Прага, кафе",Кафе,"Кавказская кухня, ",Средний чек 200 ₽,"улица Щорса, 68/2","['10:00-24:00', '10:00-24:00', '10:00-24:00', '10:00-24:00', '10:00-24:00', '10:00-24:00', '10:00-24:00']",+994 12 323 51 59,,https://i7.photo.2gis.com/main/branch/58/70000001019104227/common,70000001019104227,58.577299,49.592261
"Барон Чайхаузен, бутик-кофейня",Кофейни,,,"улица Розы Люксембург, 30","['09:00-21:00', '09:00-21:00', '09:00-21:00', '09:00-21:00', '09:00-21:00', '09:00-21:00', '09:00-21:00']",+7 (919) 529-04-30,,https://i3.photo.2gis.com/main/branch/58/70000001007528563/common,70000001007528563,58.611726,49.678848
Кабинет Чарушин,Бары,"Европейская кухня, ",Средний чек 500 ₽,"улица Ленина, 80","['07:00-24:00', '07:00-24:00', '07:00-24:00', '07:00-24:00', '07:00-24:00', '07:00-24:00', '07:00-24:00']",+7 (8332) 65-19-30,http://restoran-rossia.ru/sluzhba-dostavki,https://i2.photo.2gis.com/main/branch/58/8163302605586644/common,8163302605586644,58.603994,49.682313
"Frakcia, кофейня",Кофейни,,Средний чек 230 ₽,"улица Ленина, 86","['08:00-21:00', '08:00-21:00', '08:00-21:00', '08:00-21:00', '08:00-22:30', '10:00-22:30', '10:00-21:00']",+7 (912) 375-49-89,,https://i2.photo.2gis.com/main/branch/58/70000001056293257/common,70000001056293257,58.601632,49.681431
"Кавказская кухня, кафе",Кафе,"Кавказская кухня, ",Средний чек 400 ₽,"улица Воровского, 107в","['11:00-01:00', '11:00-01:00', '11:00-01:00', '11:00-01:00', '11:00-03:00', '11:00-03:00', '11:00-01:00']",+7 (8332) 57-27-20,,https://i1.photo.2gis.com/main/branch/58/70000001065532520/common,70000001065532520,58.593758,49.628671
E-Cafe,Кафе,"Американская кухня, ",Средний чек 650 ₽,"улица Ивана Попова, 64а","['10:00-23:00', '10:00-23:00', '10:00-23:00', '10:00-23:00', '10:00-24:00', '10:00-24:00', '10:00-23:00']",+7 (8332) 49-99-49,http://electro-kart.ru/,https://i4.photo.2gis.com/main/branch/58/70000001063774512/common,70000001063774512,58.564617,49.643432
